{"type": "FeatureCollection", "features": [{"type": "Feature", "geometry": {"type": "Point", "coordinates": [114.5938808145827, -3.319200919472339]}, "properties": {"name": "BARITO PACIFIC Tbk., PT"}}, {"type": "Feature", "geometry": {"type": "Point", "coordinates": [114.5649847607108, -3.338071512983396]}, "properties": {"name": "BASIRIH INDUSTRIAL, PT."}}, {"type": "Feature", "geometry": {"type": "Point", "coordinates": [114.5354327036391, -3.34392368545247]}, "properties": {"name": "DHARMA PUTRA KALIMANTAN SEJATI, PT"}}, {"type": "Feature", "geometry": {"type": "Point", "coordinates": [115.4496775021628, -2.142508013608454]}, "properties": {"name": "ELBANA ABADI JAYA (Unit Kassiau), PT."}}, {"type": "Feature", "geometry": {"type": "Point", "coordinates": [115.0218640067651, -3.289599744543765]}, "properties": {"name": "ELBANA ABADI JAYA (Unit Lok Tamu), PT"}}, {"type": "Feature", "geometry": {"type": "Point", "coordinates": [114.5560664613221, -3.287865679212231]}, "properties": {"name": "GOUKA INDO ENERGY, PT"}}, {"type": "Feature", "geometry": {"type": "Point", "coordinates": [115.0997761143342, -3.909704539777117]}, "properties": {"name": "HUTAN RINDANG BANUA, PT"}}, {"type": "Feature", "geometry": {"type": "Point", "coordinates": [116.0072495112063, -3.300269283722433]}, "properties": {"name": "JHONLIN AGRO MANDIRI, PT"}}, {"type": "Feature", "geometry": {"type": "Point", "coordinates": [114.5338268702324, -3.356220274239032]}, "properties": {"name": "SARANA BORNEO INDUSTRI, PT"}}, {"type": "Feature", "geometry": {"type": "Point", "coordinates": [114.5699914981735, -3.305759691539007]}, "properties": {"name": "SURYA SATRYA TIMUR. PT"}}, {"type": "Feature", "geometry": {"type": "Point", "coordinates": [114.5547003066386, -3.289081650620173]}, "properties": {"name": "TANJUNG RAYA PLYWOOD, PT"}}, {"type": "Feature", "geometry": {"type": "Point", "coordinates": [114.5511606535006, -3.322954000302696]}, "properties": {"name": "TANJUNG RAYA TIMBER, PT."}}, {"type": "Feature", "geometry": {"type": "Point", "coordinates": [114.5543201425639, -3.225498080080421]}, "properties": {"name": "TANJUNG SELATAN MAKMUR JAYA, PT"}}, {"type": "Feature", "geometry": {"type": "Point", "coordinates": [114.5624048514239, -3.335038371622455]}, "properties": {"name": "WIJAYA TRI UTAMA PLYWOOD INDUSTRI, PT"}}]}